[
    {"county": "Aleutians East Borough", "fips_id": "02013", "latitude": 55.1847, "longitude": -162.6959},
    {"county": "Aleutians West Census Area", "fips_id": "02016", "latitude": 52.4253, "longitude": -174.3121},
    {"county": "Anchorage Municipality", "fips_id": "02020", "latitude": 61.1594, "longitude": -149.1067},
    {"county": "Bethel Census Area", "fips_id": "02050", "latitude": 60.9403, "longitude": -159.6936},
    {"county": "Bristol Bay Borough", "fips_id": "02060", "latitude": 58.7424, "longitude": -156.8756},
    {"county": "Denali Borough", "fips_id": "02068", "latitude": 63.7102, "longitude": -148.8901},
    {"county": "Dillingham Census Area", "fips_id": "02070", "latitude": 59.9812, "longitude": -158.5321},
    {"county": "Fairbanks North Star Borough", "fips_id": "02090", "latitude": 64.8168, "longitude": -147.8674},
    {"county": "Haines Borough", "fips_id": "02100", "latitude": 59.1063, "longitude": -135.5797},
    {"county": "Hoonah-Angoon Census Area", "fips_id": "02105", "latitude": 57.8631, "longitude": -135.031},
    {"county": "Juneau City and Borough", "fips_id": "02110", "latitude": 58.3563, "longitude": -134.5224},
    {"county": "Kenai Peninsula Borough", "fips_id": "02122", "latitude": 60.2837, "longitude": -151.9366},
    {"county": "Ketchikan Gateway Borough", "fips_id": "02130", "latitude": 55.5459, "longitude": -131.2505},
    {"county": "Kodiak Island Borough", "fips_id": "02150", "latitude": 57.7398, "longitude": -152.4231},
    {"county": "Kusilvak Census Area", "fips_id": "02158", "latitude": 62.6487, "longitude": -162.4092},
    {"county": "Lake and Peninsula Borough", "fips_id": "02164", "latitude": 57.8606, "longitude": -156.5143},
    {"county": "Matanuska-Susitna Borough", "fips_id": "02170", "latitude": 62.1949, "longitude": -149.4377},
    {"county": "Nome Census Area", "fips_id": "02180", "latitude": 64.9047, "longitude": -163.7122},
    {"county": "North Slope Borough", "fips_id": "02185", "latitude": 69.2643, "longitude": -153.4485},
    {"county": "Northwest Arctic Borough", "fips_id": "02188", "latitude": 67.0277, "longitude": -159.9932},
    {"county": "Petersburg Borough", "fips_id": "02195", "latitude": 56.7853, "longitude": -132.9424},
    {"county": "Prince of Wales-Hyder Census Area", "fips_id": "02198", "latitude": 55.6842, "longitude": -132.7568},
    {"county": "Sitka City and Borough", "fips_id": "02220", "latitude": 57.0637, "longitude": -135.3316},
    {"county": "Skagway Municipality", "fips_id": "02230", "latitude": 59.5619, "longitude": -135.3333},
    {"county": "Southeast Fairbanks Census Area", "fips_id": "02240", "latitude": 63.8831, "longitude": -143.062},
    {"county": "Valdez-Cordova Census Area", "fips_id": "02261", "latitude": 61.5591, "longitude": -144.5929},
    {"county": "Wrangell City and Borough", "fips_id": "02275", "latitude": 56.4703, "longitude": -132.3767},
    {"county": "Yakutat City and Borough", "fips_id": "02282", "latitude": 59.9442, "longitude": -139.7303},
    {"county": "Yukon-Koyukuk Census Area", "fips_id": "02290", "latitude": 65.5065, "longitude": -151.6541}
]
