[
    {"county":"Ada County","fips_id":"16001","latitude":43.4599,"longitude":-116.244},
    {"county":"Adams County","fips_id":"16003","latitude":44.8397,"longitude":-116.4551},
    {"county":"Bannock County","fips_id":"16005","latitude":42.8201,"longitude":-112.4702},
    {"county":"Bear Lake County","fips_id":"16007","latitude":42.2781,"longitude":-111.3281},
    {"county":"Benewah County","fips_id":"16009","latitude":47.1842,"longitude":-116.6442},
    {"county":"Bingham County","fips_id":"16011","latitude":43.1953,"longitude":-112.3709},
    {"county":"Blaine County","fips_id":"16013","latitude":43.4058,"longitude":-114.283},
    {"county":"Boise County","fips_id":"16015","latitude":43.9904,"longitude":-115.8745},
    {"county":"Bonner County","fips_id":"16017","latitude":48.2999,"longitude":-116.5682},
    {"county":"Bonneville County","fips_id":"16019","latitude":43.3026,"longitude":-111.6407},
    {"county":"Boundary County","fips_id":"16021","latitude":48.8035,"longitude":-116.4605},
    {"county":"Butte County","fips_id":"16023","latitude":43.7381,"longitude":-113.1639},
    {"county":"Camas County","fips_id":"16025","latitude":43.4746,"longitude":-114.7931},
    {"county":"Canyon County","fips_id":"16027","latitude":43.6421,"longitude":-116.6876},
    {"county":"Caribou County","fips_id":"16029","latitude":42.7408,"longitude":-111.5466},
    {"county":"Cassia County","fips_id":"16031","latitude":42.2931,"longitude":-113.5573},
    {"county":"Clark County","fips_id":"16033","latitude":44.2594,"longitude":-112.3396},
    {"county":"Clearwater County","fips_id":"16035","latitude":46.6989,"longitude":-115.6273},
    {"county":"Custer County","fips_id":"16037","latitude":44.2372,"longitude":-114.3093},
    {"county":"Elmore County","fips_id":"16039","latitude":43.3757,"longitude":-115.4556},
    {"county":"Franklin County","fips_id":"16041","latitude":42.1846,"longitude":-111.8117},
    {"county":"Fremont County","fips_id":"16043","latitude":44.2092,"longitude":-111.4877},
    {"county":"Gem County","fips_id":"16045","latitude":44.0658,"longitude":-116.3999},
    {"county":"Gooding County","fips_id":"16047","latitude":42.9454,"longitude":-114.836},
    {"county":"Idaho County","fips_id":"16049","latitude":45.5434,"longitude":-115.743},
    {"county":"Jefferson County","fips_id":"16051","latitude":43.8627,"longitude":-112.2771},
    {"county":"Jerome County","fips_id":"16053","latitude":42.7089,"longitude":-114.2561},
    {"county":"Kootenai County","fips_id":"16055","latitude":47.6721,"longitude":-116.7143},
    {"county":"Latah County","fips_id":"16057","latitude":46.8543,"longitude":-116.7209},
    {"county":"Lemhi County","fips_id":"16059","latitude":44.9739,"longitude":-113.941},
    {"county":"Lewis County","fips_id":"16061","latitude":46.2256,"longitude":-116.4364},
    {"county":"Lincoln County","fips_id":"16063","latitude":43.0105,"longitude":-114.0973},
    {"county":"Madison County","fips_id":"16065","latitude":43.7955,"longitude":-111.6462},
    {"county":"Minidoka County","fips_id":"16067","latitude":42.8271,"longitude":-113.6346},
    {"county":"Nez Perce County","fips_id":"16069","latitude":46.3559,"longitude":-116.7486},
    {"county":"Oneida County","fips_id":"16071","latitude":42.1708,"longitude":-112.3381},
    {"county":"Owyhee County","fips_id":"16073","latitude":42.5724,"longitude":-116.221},
    {"county":"Payette County","fips_id":"16075","latitude":44.0187,"longitude":-116.8141},
    {"county":"Power County","fips_id":"16077","latitude":42.7521,"longitude":-112.8456},
    {"county":"Shoshone County","fips_id":"16079","latitude":47.4676,"longitude":-115.832},
    {"county":"Teton County","fips_id":"16081","latitude":43.7223,"longitude":-111.1781},
    {"county":"Twin Falls County","fips_id":"16083","latitude":42.3809,"longitude":-114.6788},
    {"county":"Valley County","fips_id":"16085","latitude":44.7862,"longitude":-115.693},
    {"county":"Washington County","fips_id":"16087","latitude":44.4531,"longitude":-116.8064}
]
