[
    {"county": "Arkansas County", "fips_id": "05001", "latitude": 34.2699, "longitude": -91.3728},
    {"county": "Ashley County", "fips_id": "05003", "latitude": 33.2269, "longitude": -91.7498},
    {"county": "Baxter County", "fips_id": "05005", "latitude": 36.2949, "longitude": -92.3666},
    {"county": "Benton County", "fips_id": "05007", "latitude": 36.3462, "longitude": -94.2503},
    {"county": "Boone County", "fips_id": "05009", "latitude": 36.3096, "longitude": -93.1086},
    {"county": "Bradley County", "fips_id": "05011", "latitude": 33.4886, "longitude": -92.1609},
    {"county": "Calhoun County", "fips_id": "05013", "latitude": 33.5553, "longitude": -92.4999},
    {"county": "Carroll County", "fips_id": "05015", "latitude": 36.3555, "longitude": -93.4523},
    {"county": "Chicot County", "fips_id": "05017", "latitude": 33.2713, "longitude": -91.2795},
    {"county": "Clark County", "fips_id": "05019", "latitude": 34.0375, "longitude": -93.1624},
    {"county": "Clay County", "fips_id": "05021", "latitude": 36.3748, "longitude": -90.4325},
    {"county": "Cleburne County", "fips_id": "05023", "latitude": 35.5542, "longitude": -92.0246},
    {"county": "Cleveland County", "fips_id": "05025", "latitude": 33.9084, "longitude": -92.1748},
    {"county": "Columbia County", "fips_id": "05027", "latitude": 33.2251, "longitude": -93.246},
    {"county": "Conway County", "fips_id": "05029", "latitude": 35.2623, "longitude": -92.7069},
    {"county": "Craighead County", "fips_id": "05031", "latitude": 35.8321, "longitude": -90.6327},
    {"county": "Crawford County", "fips_id": "05033", "latitude": 35.6055, "longitude": -94.2421},
    {"county": "Crittenden County", "fips_id": "05035", "latitude": 35.2012, "longitude": -90.3125},
    {"county": "Cross County", "fips_id": "05037", "latitude": 35.2928, "longitude": -90.7786},
    {"county": "Dallas County", "fips_id": "05039", "latitude": 33.9708, "longitude": -92.6564},
    {"county": "Desha County", "fips_id": "05041", "latitude": 33.8709, "longitude": -91.229},
    {"county": "Drew County", "fips_id": "05043", "latitude": 33.5995, "longitude": -91.731},
    {"county": "Faulkner County", "fips_id": "05045", "latitude": 35.1476, "longitude": -92.3811},
    {"county": "Franklin County", "fips_id": "05047", "latitude": 35.5109, "longitude": -93.864},
    {"county": "Fulton County", "fips_id": "05049", "latitude": 36.3869, "longitude": -91.8165},
    {"county": "Garland County", "fips_id": "05051", "latitude": 34.5257, "longitude": -93.1196},
    {"county": "Grant County", "fips_id": "05053", "latitude": 34.2967, "longitude": -92.4265},
    {"county": "Greene County", "fips_id": "05055", "latitude": 36.1213, "longitude": -90.5563},
    {"county": "Hempstead County", "fips_id": "05057", "latitude": 33.7211, "longitude": -93.6702},
    {"county": "Hot Spring County", "fips_id": "05059", "latitude": 34.3317, "longitude": -92.9502},
    {"county": "Howard County", "fips_id": "05061", "latitude": 34.0922, "longitude": -93.9803},
    {"county": "Independence County", "fips_id": "05063", "latitude": 35.7204, "longitude": -91.5715},
    {"county": "Izard County", "fips_id": "05065", "latitude": 36.1083, "longitude": -91.9149},
    {"county": "Jackson County", "fips_id": "05067", "latitude": 35.6052, "longitude": -91.2287},
    {"county": "Jefferson County", "fips_id": "05069", "latitude": 34.2728, "longitude": -91.9217},
    {"county": "Johnson County", "fips_id": "05071", "latitude": 35.5722, "longitude": -93.4529},
    {"county": "Lafayette County", "fips_id": "05073", "latitude": 33.2259, "longitude": -93.6079},
    {"county": "Lawrence County", "fips_id": "05075", "latitude": 36.0293, "longitude": -91.0998},
    {"county": "Lee County", "fips_id": "05077", "latitude": 34.7785, "longitude": -90.7921},
    {"county": "Lincoln County", "fips_id": "05079", "latitude": 33.9438, "longitude": -91.7435},
    {"county": "Little River County", "fips_id": "05081", "latitude": 33.7056, "longitude": -94.2371},
    {"county": "Logan County", "fips_id": "05083", "latitude": 35.3032, "longitude": -93.7204},
    {"county": "Lonoke County", "fips_id": "05085", "latitude": 34.7506, "longitude": -91.8824},
    {"county": "Madison County", "fips_id": "05087", "latitude": 36.0097, "longitude": -93.7157},
    {"county": "Marion County", "fips_id": "05089", "latitude": 36.2819, "longitude": -92.6848},
    {"county": "Miller County", "fips_id": "05091", "latitude": 33.3447, "longitude": -93.8708},
    {"county": "Mississippi County", "fips_id": "05093", "latitude": 35.7625, "longitude": -90.0525},
    {"county": "Monroe County", "fips_id": "05095", "latitude": 34.6652, "longitude": -91.202},
    {"county": "Montgomery County", "fips_id": "05097", "latitude": 34.5248, "longitude": -93.6946},
    {"county": "Nevada County", "fips_id": "05099", "latitude": 33.6748, "longitude": -93.3066},
    {"county": "Newton County", "fips_id": "05101", "latitude": 35.9518, "longitude": -93.2177},
    {"county": "Ouachita County", "fips_id": "05103", "latitude": 33.6185, "longitude": -92.8466},
    {"county": "Perry County", "fips_id": "05105", "latitude": 34.9429, "longitude": -92.9348},
    {"county": "Phillips County", "fips_id": "05107", "latitude": 34.4499, "longitude": -90.8788},
    {"county": "Pike County", "fips_id": "05109", "latitude": 34.1626, "longitude": -93.6107},
    {"county": "Poinsett County", "fips_id": "05111", "latitude": 35.5825, "longitude": -90.6614},
    {"county": "Polk County", "fips_id": "05113", "latitude": 34.4862, "longitude": -94.2243},
    {"county": "Pope County", "fips_id": "05115", "latitude": 35.4338, "longitude": -93.0322},
    {"county": "Prairie County", "fips_id": "05117", "latitude": 34.8479, "longitude": -91.5504},
    {"county": "Pulaski County", "fips_id": "05119", "latitude": 34.7514, "longitude": -92.278},
    {"county": "Randolph County", "fips_id": "05121", "latitude": 36.3368, "longitude": -91.0077},
    {"county": "St. Francis County", "fips_id": "05123", "latitude": 35.0159, "longitude": -90.6968},
    {"county": "Saline County", "fips_id": "05125", "latitude": 34.6551, "longitude": -92.7305},
    {"county": "Scott County", "fips_id": "05127", "latitude": 34.8655, "longitude": -94.0526},
    {"county": "Searcy County", "fips_id": "05129", "latitude": 36.0636, "longitude": -92.6494},
    {"county": "Sebastian County", "fips_id": "05131", "latitude": 35.2194, "longitude": -94.3154},
    {"county": "Sevier County", "fips_id": "05133", "latitude": 34.0784, "longitude": -94.2472},
    {"county": "Sharp County", "fips_id": "05135", "latitude": 36.1646, "longitude": -91.4914},
    {"county": "Stone County", "fips_id": "05137", "latitude": 35.8806, "longitude": -92.166},
    {"county": "Union County", "fips_id": "05139", "latitude": 33.2003, "longitude": -92.5901},
    {"county": "Van Buren County", "fips_id": "05141", "latitude": 35.5875, "longitude": -92.5188},
    {"county": "Washington County", "fips_id": "05143", "latitude": 35.9669, "longitude": -94.2312},
    {"county": "White County", "fips_id": "05145", "latitude": 35.2508, "longitude": -91.7301},
    {"county": "Woodruff County", "fips_id": "05147", "latitude": 35.1942, "longitude": -91.2389},
    {"county": "Yell County", "fips_id": "05149", "latitude": 34.9593, "longitude": -93.4461}
]
