[
    {"county": "Abbeville", "fips_id": "45001", "latitude": 34.2320, "longitude": -82.4566},
    {"county": "Aiken", "fips_id": "45003", "latitude": 33.5435, "longitude": -81.6367},
    {"county": "Allendale", "fips_id": "45005", "latitude": 32.9962, "longitude": -81.3498},
    {"county": "Anderson", "fips_id": "45007", "latitude": 34.5185, "longitude": -82.6393},
    {"county": "Bamberg", "fips_id": "45009", "latitude": 33.2993, "longitude": -81.0432},
    {"county": "Barnwell", "fips_id": "45011", "latitude": 33.2448, "longitude": -81.4351},
    {"county": "Beaufort", "fips_id": "45013", "latitude": 32.3754, "longitude": -80.7072},
    {"county": "Berkeley", "fips_id": "45015", "latitude": 33.1959, "longitude": -79.9901},
    {"county": "Calhoun", "fips_id": "45017", "latitude": 33.7063, "longitude": -80.7732},
    {"county": "Charleston", "fips_id": "45019", "latitude": 32.8323, "longitude": -79.9828},
    {"county": "Cherokee", "fips_id": "45021", "latitude": 35.0594, "longitude": -81.6413},
    {"county": "Chester", "fips_id": "45023", "latitude": 34.6737, "longitude": -81.1912},
    {"county": "Chesterfield", "fips_id": "45025", "latitude": 34.6290, "longitude": -80.1644},
    {"county": "Clarendon", "fips_id": "45027", "latitude": 33.6478, "longitude": -80.2014},
    {"county": "Colleton", "fips_id": "45029", "latitude": 32.8481, "longitude": -80.6938},
    {"county": "Darlington", "fips_id": "45031", "latitude": 34.3130, "longitude": -79.9717},
    {"county": "Dillon", "fips_id": "45033", "latitude": 34.4182, "longitude": -79.3697},
    {"county": "Dorchester", "fips_id": "45035", "latitude": 33.0904, "longitude": -80.3667},
    {"county": "Edgefield", "fips_id": "45037", "latitude": 33.7888, "longitude": -81.9482},
    {"county": "Fairfield", "fips_id": "45039", "latitude": 34.3871, "longitude": -81.1317},
    {"county": "Florence", "fips_id": "45041", "latitude": 34.0454, "longitude": -79.7087},
    {"county": "Georgetown", "fips_id": "45043", "latitude": 33.4043, "longitude": -79.3525},
    {"county": "Greenville", "fips_id": "45045", "latitude": 34.8841, "longitude": -82.3190},
    {"county": "Greenwood", "fips_id": "45047", "latitude": 34.1938, "longitude": -82.1618},
    {"county": "Hampton", "fips_id": "45049", "latitude": 32.7813, "longitude": -81.1141},
    {"county": "Horry", "fips_id": "45051", "latitude": 33.9161, "longitude": -78.9856},
    {"county": "Jasper", "fips_id": "45053", "latitude": 32.4607, "longitude": -81.0634},
    {"county": "Kershaw", "fips_id": "45055", "latitude": 34.3330, "longitude": -80.5883},
    {"county": "Lancaster", "fips_id": "45057", "latitude": 34.6946, "longitude": -80.7417},
    {"county": "Laurens", "fips_id": "45059", "latitude": 34.4812, "longitude": -82.0027},
    {"county": "Lee", "fips_id": "45061", "latitude": 34.1797, "longitude": -80.2200},
    {"county": "Lexington", "fips_id": "45063", "latitude": 33.8964, "longitude": -81.2133},
    {"county": "McCormick", "fips_id": "45065", "latitude": 33.9082, "longitude": -82.3018},
    {"county": "Marion", "fips_id": "45067", "latitude": 34.1654, "longitude": -79.3322},
    {"county": "Marlboro", "fips_id": "45069", "latitude": 34.6028, "longitude": -79.6892},
    {"county": "Newberry", "fips_id": "45071", "latitude": 34.2995, "longitude": -81.6024},
    {"county": "Oconee", "fips_id": "45073", "latitude": 34.7418, "longitude": -83.0600},
    {"county": "Orangeburg", "fips_id": "45075", "latitude": 33.4415, "longitude": -80.8567},
    {"county": "Pickens", "fips_id": "45077", "latitude": 34.8776, "longitude": -82.7026},
    {"county": "Richland", "fips_id": "45079", "latitude": 34.0205, "longitude": -80.9000},
    {"county": "Saluda", "fips_id": "45081", "latitude": 34.0142, "longitude": -81.7588},
    {"county": "Spartanburg", "fips_id": "45083", "latitude": 34.9117, "longitude": -81.9786},
    {"county": "Sumter", "fips_id": "45085", "latitude": 33.9339, "longitude": -80.3748},
    {"county": "Union", "fips_id": "45087", "latitude": 34.7043, "longitude": -81.6207},
    {"county": "Williamsburg", "fips_id": "45089", "latitude": 33.6209, "longitude": -79.7510},
    {"county": "York", "fips_id": "45091", "latitude": 34.9734, "longitude": -81.1805}
  ]
  