[
    {"county": "Anderson", "fips_id": "47001", "latitude": 36.1264, "longitude": -84.1303},
    {"county": "Bedford", "fips_id": "47003", "latitude": 35.4884, "longitude": -86.4590},
    {"county": "Benton", "fips_id": "47005", "latitude": 36.0584, "longitude": -88.0491},
    {"county": "Bledsoe", "fips_id": "47007", "latitude": 35.6067, "longitude": -85.1997},
    {"county": "Blount", "fips_id": "47009", "latitude": 35.6864, "longitude": -83.8870},
    {"county": "Bradley", "fips_id": "47011", "latitude": 35.1576, "longitude": -84.8610},
    {"county": "Campbell", "fips_id": "47013", "latitude": 36.4020, "longitude": -84.1849},
    {"county": "Cannon", "fips_id": "47015", "latitude": 35.8069, "longitude": -86.0578},
    {"county": "Carroll", "fips_id": "47017", "latitude": 35.9578, "longitude": -88.4515},
    {"county": "Carter", "fips_id": "47019", "latitude": 36.3125, "longitude": -82.1331},
    {"county": "Cheatham", "fips_id": "47021", "latitude": 36.2223, "longitude": -87.1042},
    {"county": "Chester", "fips_id": "47023", "latitude": 35.4246, "longitude": -88.6142},
    {"county": "Claiborne", "fips_id": "47025", "latitude": 36.4942, "longitude": -83.6703},
    {"county": "Clay", "fips_id": "47027", "latitude": 36.5567, "longitude": -85.5712},
    {"county": "Cocke", "fips_id": "47029", "latitude": 35.9022, "longitude": -83.1100},
    {"county": "Coffee", "fips_id": "47031", "latitude": 35.4749, "longitude": -86.0780},
    {"county": "Crockett", "fips_id": "47033", "latitude": 35.8141, "longitude": -89.1512},
    {"county": "Cumberland", "fips_id": "47035", "latitude": 35.9495, "longitude": -85.0530},
    {"county": "Davidson", "fips_id": "47037", "latitude": 36.1484, "longitude": -86.7844},
    {"county": "Decatur", "fips_id": "47039", "latitude": 35.6115, "longitude": -88.1289},
    {"county": "DeKalb", "fips_id": "47041", "latitude": 35.9781, "longitude": -85.8284},
    {"county": "Dickson", "fips_id": "47043", "latitude": 36.1466, "longitude": -87.3743},
    {"county": "Dyer", "fips_id": "47045", "latitude": 36.0620, "longitude": -89.4089},
    {"county": "Fayette", "fips_id": "47047", "latitude": 35.1783, "longitude": -89.4060},
    {"county": "Fentress", "fips_id": "47049", "latitude": 36.3818, "longitude": -84.9247},
    {"county": "Franklin", "fips_id": "47051", "latitude": 35.1596, "longitude": -86.1005},
    {"county": "Gibson", "fips_id": "47053", "latitude": 35.9062, "longitude": -88.8915},
    {"county": "Giles", "fips_id": "47055", "latitude": 35.1989, "longitude": -87.0354},
    {"county": "Grainger", "fips_id": "47057", "latitude": 36.2914, "longitude": -83.5070},
    {"county": "Greene", "fips_id": "47059", "latitude": 36.1671, "longitude": -82.8318},
    {"county": "Grundy", "fips_id": "47061", "latitude": 35.3747, "longitude": -85.7089},
    {"county": "Hamblen", "fips_id": "47063", "latitude": 36.2168, "longitude": -83.3068},
    {"county": "Hamilton", "fips_id": "47065", "latitude": 35.1939, "longitude": -85.2025},
    {"county": "Hancock", "fips_id": "47067", "latitude": 36.5228, "longitude": -83.2142},
    {"county": "Hardeman", "fips_id": "47069", "latitude": 35.2017, "longitude": -89.1556},
    {"county": "Hardin", "fips_id": "47071", "latitude": 35.1933, "longitude": -88.1225},
    {"county": "Hawkins", "fips_id": "47073", "latitude": 36.4465, "longitude": -82.9415},
    {"county": "Haywood", "fips_id": "47075", "latitude": 35.5911, "longitude": -89.3012},
    {"county": "Henderson", "fips_id": "47077", "latitude": 35.6541, "longitude": -88.3586},
    {"county": "Henry", "fips_id": "47079", "latitude": 36.3248, "longitude": -88.3043},
    {"county": "Hickman", "fips_id": "47081", "latitude": 35.7940, "longitude": -87.4620},
    {"county": "Houston", "fips_id": "47083", "latitude": 36.2585, "longitude": -87.7922},
    {"county": "Humphreys", "fips_id": "47085", "latitude": 36.0591, "longitude": -87.7841},
    {"county": "Jackson", "fips_id": "47087", "latitude": 36.3442, "longitude": -85.6837},
    {"county": "Jefferson", "fips_id": "47089", "latitude": 36.0636, "longitude": -83.4475},
    {"county": "Johnson", "fips_id": "47091", "latitude": 36.4718, "longitude": -81.8320},
    {"county": "Knox", "fips_id": "47093", "latitude": 35.9951, "longitude": -83.9464},
    {"county": "Lake", "fips_id": "47095", "latitude": 36.3461, "longitude": -89.5024},
    {"county": "Lauderdale", "fips_id": "47097", "latitude": 35.7622, "longitude": -89.6384},
    {"county": "Lawrence", "fips_id": "47099", "latitude": 35.2445, "longitude": -87.3585},
    {"county": "Lewis", "fips_id": "47101", "latitude": 35.5316, "longitude": -87.3891},
    {"county": "Lincoln", "fips_id": "47103", "latitude": 35.9307, "longitude": -86.5126},
    {"county": "Loudon", "fips_id": "47105", "latitude": 35.7590, "longitude": -84.2639},
    {"county": "McMinn", "fips_id": "47107", "latitude": 35.4091, "longitude": -84.6366},
    {"county": "McNairy", "fips_id": "47109", "latitude": 35.1695, "longitude": -88.5682},
    {"county": "Macon", "fips_id": "47111", "latitude": 36.5221, "longitude": -86.0015},
    {"county": "Madison", "fips_id": "47113", "latitude": 35.6141, "longitude": -88.7909},
    {"county": "Marion", "fips_id": "47115", "latitude": 35.1301, "longitude": -85.6206},
    {"county": "Marshall", "fips_id": "47117", "latitude": 35.4779, "longitude": -86.7797},
    {"county": "Maury", "fips_id": "47119", "latitude": 35.6249, "longitude": -87.0353},
    {"county": "Meigs", "fips_id": "47121", "latitude": 35.5127, "longitude": -84.7941},
    {"county": "Monroe", "fips_id": "47123", "latitude": 35.4455, "longitude": -84.2406},
    {"county": "Montgomery", "fips_id": "47125", "latitude": 36.4961, "longitude": -87.3845},
    {"county": "Moore", "fips_id": "47127", "latitude": 35.2965, "longitude": -86.3524},
    {"county": "Morgan", "fips_id": "47129", "latitude": 36.1345, "longitude": -84.6428},
    {"county": "Obion", "fips_id": "47131", "latitude": 36.3477, "longitude": -89.1885},
    {"county": "Overton", "fips_id": "47133", "latitude": 36.3431, "longitude": -85.3097},
    {"county": "Perry", "fips_id": "47135", "latitude": 35.6228, "longitude": -87.8659},
    {"county": "Pickett", "fips_id": "47137", "latitude": 36.5544, "longitude": -85.0627},
    {"county": "Polk", "fips_id": "47139", "latitude": 35.1309, "longitude": -84.5152},
    {"county": "Putnam", "fips_id": "47141", "latitude": 36.1574, "longitude": -85.4995},
    {"county": "Rhea", "fips_id": "47143", "latitude": 35.5952, "longitude": -84.9140},
    {"county": "Roane", "fips_id": "47145", "latitude": 35.8329, "longitude": -84.5320},
    {"county": "Robertson", "fips_id": "47147", "latitude": 36.5269, "longitude": -86.8748},
    {"county": "Rutherford", "fips_id": "47149", "latitude": 35.8150, "longitude": -86.4169},
    {"county": "Scott", "fips_id": "47151", "latitude": 36.4050, "longitude": -84.4960},
    {"county": "Sequatchie", "fips_id": "47153", "latitude": 35.3688, "longitude": -85.4017},
    {"county": "Sevier", "fips_id": "47155", "latitude": 35.8090, "longitude": -83.5299},
    {"county": "Shelby", "fips_id": "47157", "latitude": 35.1832, "longitude": -89.8950},
    {"county": "Smith", "fips_id": "47159", "latitude": 36.2515, "longitude": -85.9472},
    {"county": "Stewart", "fips_id": "47161", "latitude": 36.4979, "longitude": -87.8325},
    {"county": "Sullivan", "fips_id": "47163", "latitude": 36.5147, "longitude": -82.3043},
    {"county": "Sumner", "fips_id": "47165", "latitude": 36.4689, "longitude": -86.4637},
    {"county": "Tipton", "fips_id": "47167", "latitude": 35.5112, "longitude": -89.7641},
    {"county": "Trousdale", "fips_id": "47169", "latitude": 36.3919, "longitude": -86.1581},
    {"county": "Unicoi", "fips_id": "47171", "latitude": 36.1467, "longitude": -82.3688},
    {"county": "Union", "fips_id": "47173", "latitude": 36.2888, "longitude": -83.8398},
    {"county": "Van Buren", "fips_id": "47175", "latitude": 35.6929, "longitude": -85.4631},
    {"county": "Warren", "fips_id": "47177", "latitude": 35.6845, "longitude": -85.7950},
    {"county": "Washington", "fips_id": "47179", "latitude": 36.2993, "longitude": -82.5149},
    {"county": "Wayne", "fips_id": "47181", "latitude": 35.3442, "longitude": -87.7691},
    {"county": "Weakley", "fips_id": "47183", "latitude": 36.3039, "longitude": -88.7071},
    {"county": "White", "fips_id": "47185", "latitude": 35.9180, "longitude": -85.4551},
    {"county": "Williamson", "fips_id": "47187", "latitude": 35.9009, "longitude": -86.8806},
    {"county": "Wilson", "fips_id": "47189", "latitude": 36.1417, "longitude": -86.2907}
  ]
  