[
    {"county": "Barbour", "fips_id": "54001", "latitude": 39.0887, "longitude": -79.9659},
    {"county": "Berkeley", "fips_id": "54003", "latitude": 39.4570, "longitude": -78.0382},
    {"county": "Boone", "fips_id": "54005", "latitude": 38.0194, "longitude": -81.7195},
    {"county": "Braxton", "fips_id": "54007", "latitude": 38.7056, "longitude": -80.7195},
    {"county": "Brooke", "fips_id": "54009", "latitude": 40.2714, "longitude": -80.5865},
    {"county": "Cabell", "fips_id": "54011", "latitude": 38.4223, "longitude": -82.2077},
    {"county": "Calhoun", "fips_id": "54013", "latitude": 38.8551, "longitude": -81.0907},
    {"county": "Clay", "fips_id": "54015", "latitude": 38.4435, "longitude": -81.1057},
    {"county": "Doddridge", "fips_id": "54017", "latitude": 39.2710, "longitude": -80.6653},
    {"county": "Fayette", "fips_id": "54019", "latitude": 38.0429, "longitude": -81.0860},
    {"county": "Gilmer", "fips_id": "54021", "latitude": 38.9323, "longitude": -80.8271},
    {"county": "Grant", "fips_id": "54023", "latitude": 39.1058, "longitude": -79.1823},
    {"county": "Greenbrier", "fips_id": "54025", "latitude": 37.9628, "longitude": -80.4287},
    {"county": "Hampshire", "fips_id": "54027", "latitude": 39.3178, "longitude": -78.5679},
    {"county": "Hancock", "fips_id": "54029", "latitude": 40.5156, "longitude": -80.5922},
    {"county": "Hardy", "fips_id": "54031", "latitude": 39.0324, "longitude": -78.9358},
    {"county": "Harrison", "fips_id": "54033", "latitude": 39.2859, "longitude": -80.4294},
    {"county": "Jackson", "fips_id": "54035", "latitude": 38.8432, "longitude": -81.6612},
    {"county": "Jefferson", "fips_id": "54037", "latitude": 39.3120, "longitude": -77.8711},
    {"county": "Kanawha", "fips_id": "54039", "latitude": 38.3357, "longitude": -81.5395},
    {"county": "Lewis", "fips_id": "54041", "latitude": 38.9922, "longitude": -80.4954},
    {"county": "Lincoln", "fips_id": "54043", "latitude": 38.1463, "longitude": -82.0357},
    {"county": "Logan", "fips_id": "54045", "latitude": 37.8210, "longitude": -81.9249},
    {"county": "McDowell", "fips_id": "54047", "latitude": 37.3711, "longitude": -81.6731},
    {"county": "Marion", "fips_id": "54049", "latitude": 39.4994, "longitude": -80.2460},
    {"county": "Marshall", "fips_id": "54051", "latitude": 39.8569, "longitude": -80.6900},
    {"county": "Mason", "fips_id": "54053", "latitude": 38.7543, "longitude": -82.0076},
    {"county": "Mercer", "fips_id": "54055", "latitude": 37.4023, "longitude": -81.0853},
    {"county": "Mineral", "fips_id": "54057", "latitude": 39.3833, "longitude": -78.9461},
    {"county": "Mingo", "fips_id": "54059", "latitude": 37.7421, "longitude": -82.2902},
    {"county": "Monongalia", "fips_id": "54061", "latitude": 39.6337, "longitude": -80.1349},
    {"county": "Monroe", "fips_id": "54063", "latitude": 37.5559, "longitude": -80.5527},
    {"county": "Morgan", "fips_id": "54065", "latitude": 39.5600, "longitude": -78.2609},
    {"county": "Nicholas", "fips_id": "54067", "latitude": 38.2645, "longitude": -80.7805},
    {"county": "Ohio", "fips_id": "54069", "latitude": 40.1022, "longitude": -80.6081},
    {"county": "Pendleton", "fips_id": "54071", "latitude": 38.6789, "longitude": -79.3590},
    {"county": "Pleasants", "fips_id": "54073", "latitude": 39.3531, "longitude": -81.1774},
    {"county": "Pocahontas", "fips_id": "54075", "latitude": 38.3163, "longitude": -80.0156},
    {"county": "Preston", "fips_id": "54077", "latitude": 39.4757, "longitude": -79.6764},
    {"county": "Putnam", "fips_id": "54079", "latitude": 38.4923, "longitude": -81.8875},
    {"county": "Raleigh", "fips_id": "54081", "latitude": 37.7698, "longitude": -81.2468},
    {"county": "Randolph", "fips_id": "54083", "latitude": 38.7984, "longitude": -79.8828},
    {"county": "Ritchie", "fips_id": "54085", "latitude": 39.2285, "longitude": -81.1064},
    {"county": "Roane", "fips_id": "54087", "latitude": 38.7123, "longitude": -81.3497},
    {"county": "Summers", "fips_id": "54089", "latitude": 37.6889, "longitude": -80.8773},
    {"county": "Taylor", "fips_id": "54091", "latitude": 39.3297, "longitude": -80.0429},
    {"county": "Tucker", "fips_id": "54093", "latitude": 39.1004, "longitude": -79.5969},
    {"county": "Tyler", "fips_id": "54095", "latitude": 39.4864, "longitude": -80.8904},
    {"county": "Upshur", "fips_id": "54097", "latitude": 38.9107, "longitude": -80.2163},
    {"county": "Wayne", "fips_id": "54099", "latitude": 38.1493, "longitude": -82.4254},
    {"county": "Webster", "fips_id": "54101", "latitude": 38.5707, "longitude": -80.4412},
    {"county": "Wetzel", "fips_id": "54103", "latitude": 39.6211, "longitude": -80.6515},
    {"county": "Wirt", "fips_id": "54105", "latitude": 39.0191, "longitude": -81.3702},
    {"county": "Wood", "fips_id": "54107", "latitude": 39.2172, "longitude": -81.4999},
    {"county": "Wyoming", "fips_id": "54109", "latitude": 37.6087, "longitude": -81.5473}
  ]
  